country,city,latitude,longitude,temp,temp_min,temp_max,pressure,humidity,sea_level,ground_level,wind_speed,wind_degree,sunrise,sunset,rain_1h,rain_3h,timezone,cloud,description
NG,Arochukwu,5.3876,7.9065,303.13,303.13,303.13,1015,20,1015,1009,2.21,41,1707284701,1707327598,,,3600,100,overcast clouds
BE,Atrin,50.4176,5.4142,277.2,276.21,282.69,1005,92,1005,969,7.8,245,1707289504,1707323992,0.21,,3600,100,light rain
NG,Okigwe,5.7365,7.5027,302.23,302.23,302.23,1015,15,1015,992,5.36,44,1707284821,1707327672,,,3600,100,overcast clouds
NG,Ohafia-Ifigh,5.6335,7.8285,302.17,302.17,302.17,1015,17,1015,996,3.66,41,1707284736,1707327600,,,3600,100,overcast clouds
NG,Ganye,8.4334,12.0672,301.69,301.69,301.69,1018,13,1018,965,2.09,51,1707283907,1707326395,,,3600,42,scattered clouds
NG,Gombi,10.1661,12.7369,298.83,298.83,298.83,1018,16,1018,952,2.71,31,1707283864,1707326117,,,3600,18,few clouds
FR,Marcigny,46.2094,4.0046,281.06,280.73,282.75,1018,76,1018,981,2.61,176,1707289206,1707324966,,,3600,100,overcast clouds
CN,Nanchang,28.6875,115.854,275.57,275.57,275.57,1026,96,1026,1024,2.94,340,1707260509,1707299973,,,28800,100,overcast clouds
